[{
  "team": "São Paulo",
  "stadium": "Estádio Do Morumbi",
  "city": "São Paulo",
  "address": "Praça Roberto Gomes Pedrosa, 1",
  "fundation": 1960,
  "dimensions": "105m x 68m",
  "capacity": 72039,
  "latitude": -23.60005845,
  "longitude": -46.720158347269496
},
{
  "team": "Palmeiras",
  "stadium": "Allianz Parque",
  "city": "São Paulo",
  "address": "Av. Francisco Matarazzo, 1705",
  "fundation": 2014,
  "dimensions": "105m x 68m",
  "capacity": 46000,
  "latitude": -23.52749715,
  "longitude": -46.67852807811731
},
{
  "team": "Santos",
  "stadium": "Estádio Urbano Caldeira",
  "city": "Santos",
  "address": "Rua Princesa Isabel, S/N",
  "fundation": 1916,
  "dimensions": "105m x 68m",
  "capacity": 16000,
  "latitude": -23.951115700000003,
  "longitude": -46.338991283434986
},
{
  "team": "Corinthians",
  "stadium": "Arena Corinthians",
  "city": "São Paulo",
  "address": "Av. Miguel Ignácio Curi, 111",
  "fundation": 2014,
  "dimensions": "105m x 68m",
  "capacity": 49205,
  "latitude": -23.5452934,
  "longitude": -46.474286436433154
},
{
  "team": "Flamengo",
  "stadium": "Estádio Maracanã",
  "city": "Rio de Janeiro",
  "address": "Av. Pres. Castelo Branco, Portão 3",
  "fundation": 1950,
  "dimensions": "105m x 68m",
  "capacity": 84738,
  "latitude": -22.9122,
  "longitude": -43.2302
},
{
  "team": "Fluminense",
  "stadium": "Estádio Das Laranjeiras",
  "city": "Rio de Janeiro",
  "address": "R. Pinheiro Machado, 86-126",
  "fundation": 1919,
  "dimensions": "105m x 68m",
  "capacity": 8000,
  "latitude": -22.9368695,
  "longitude": -43.184601076292516
},
{
  "team": "Botafogo",
  "stadium": "Estádio Nilton Santos",
  "city": "Rio de Janeiro",
  "address": "R. José Dos Reis, 425",
  "fundation": 2007,
  "dimensions": "105m x 68m",
  "capacity": 46931 ,
  "latitude": -22.893194,
  "longitude": -43.29356908690929
},
{
  "team": "Vasco Da Gama",
  "stadium": "Estádio São Januário",
  "city": "Rio de Janeiro",
  "address": "Av. Roberto Dinamite, 10",
  "fundation": 1927,
  "dimensions": "105m x 68m",
  "capacity": 21880,
  "latitude": -22.890752,
  "longitude": -43.22831183219895
},
{
  "team": "Grêmio",
  "stadium": "Arena Do Grêmio",
  "city": "Porto Alegre",
  "address": "Av. Padre Leopoldo Brentano, 110",
  "fundation": 2012,
  "dimensions": "105m x 68m",
  "capacity": 60540,
  "latitude": -29.974042949999998,
  "longitude": -51.195107349371696
},
{
  "team": "Internacional",
  "stadium": "Estádio Beira-Rio",
  "city": "Porto Alegre",
  "address": "Av. Padre Cacique, 891",
  "fundation": 1969,
  "dimensions": "108m x 70m",
  "capacity": 50000,
  "latitude": -30.0654898,
  "longitude": -51.23491778159686
},
{
  "team": "Cruzeiro",
  "stadium": "Estádio Mineirão",
  "city": "Belo Horizonte",
  "address": "Av. Antônio Abrahão Caram, 1001",
  "fundation": 1965,
  "dimensions": "105m x 68m",
  "capacity": 61846,
  "latitude": -19.865911500000003,
  "longitude": -43.971043404332164
},
{
  "team": "Atlético Mineiro",
  "stadium": "Arena MRV",
  "city": "Belo Horizonte",
  "address": "Avenida Presidente Juscelino Kubitschek, 1452",
  "fundation": 2023,
  "dimensions": "105m x 68m",
  "capacity": 47000,
  "latitude": -19.9300116,
  "longitude": -44.01388130198211
},
{
  "team": "Bahia",
  "stadium": "Arena Fonte Nova",
  "city": "Salvador",
  "address": "Ladeira Da Fonte Das Pedras, S/N",
  "fundation": 2013,
  "dimensions": "105m x 68m",
  "capacity": 48000,
  "latitude": -12.97888575,
  "longitude": -38.503482173027365
},
{
  "team": "Vitória",
  "stadium": "Estádio Manoel Barradas",
  "city": "Salvador",
  "address": "Rua Artêmio Castro Valente, 1",
  "fundation": 1899,
  "dimensions": "105m x 68m",
  "capacity": 35550,
  "latitude": -12.919095949999999,
  "longitude": -38.4271320599244
},
{
  "team": "Sport Recife",
  "stadium": "Estádio Ilha Do Retiro",
  "city": "Recife",
  "address": "Rua Sport Club Do Recife",
  "fundation": 1937,
  "dimensions": "105m x 68m",
  "capacity": 35020,
  "latitude": -8.0630099,
  "longitude": -34.90360045446361
},
{
  "team": "Náutico",
  "stadium": "Estádio Dos Aflitos",
  "city": "Recife",
  "address": "Av. Conselheiro Rosa E Silva, 1086",
  "fundation": 1939,
  "dimensions": "105m x 68m",
  "capacity": 20856,
  "latitude": -8.040531600000001,
  "longitude": -34.89629586824714
},
{
  "team": "Ceará",
  "stadium": "Estádio Castelão",
  "city": "Fortaleza",
  "address": "Av. Alberto Craveiro, 2901",
  "fundation": 1973,
  "dimensions": "105m x 68m",
  "capacity": 65000,
  "latitude": -3.80674195,
  "longitude": -38.52167940726448
},
{
  "team": "Fortaleza",
  "stadium": "Estádio Castelão",
  "city": "Fortaleza",
  "address": "Av. Alberto Craveiro, 2901",
  "fundation": 1973,
  "dimensions": "105m x 68m",
  "capacity": 65000,
  "latitude": -3.80674195,
  "longitude": -38.52167940726448
},
{
  "team": "Goiás",
  "stadium": "Estádio Serra Dourada",
  "city": "Goiânia",
  "address": "Av. Fued José Sebba, 1170",
  "fundation": 1978,
  "dimensions": "110m x 75m",
  "capacity": 42049,
  "latitude": -16.6991028,
  "longitude": -49.23414203670745
},
{
  "team": "Atlético Goianiense",
  "stadium": "Estádio Antônio Accioly",
  "city": "Goiânia",
  "address": "Av. Perimetral, 921 - St. Campinas",
  "fundation": 1937,
  "dimensions": "105m x 68m",
  "capacity": 12500,
  "latitude": -16.66953085,
  "longitude": -49.28413757491893
}
]