[{
  "team": "París Saint-Germain",
  "stadium": "Le Parc Des Princes",
  "city": "París",
  "address": "24 Rue Du Commandant Guilbaud, 75016 París",
  "fundation": 1970,
  "dimensions": "105m x 68m",
  "capacity": 47929,
  "latitude": 48.841363400000006,
  "longitude": 2.2530693162378235
},
{
  "team": "Saint-Étienne",
  "stadium": "Stade Geoffroy-Guichard",
  "city": "Saint-Étienne",
  "address": "14 Rue Paul Et Pierre Guichard, Saint-Étienne",
  "fundation": 1931,
  "dimensions": "105m x 68m",
  "capacity": 42000,
  "latitude": 45.46075665,
  "longitude": 4.390093207379497
},
{
  "team": "Olympique De Marsella",
  "stadium": "Stade Vélodrome",
  "city": "Marsella",
  "address": "3 Boulevard Michelet, 13008 Marsella",
  "fundation": 1940,
  "dimensions": "105m x 68m",
  "capacity": 67894,
  "latitude": 43.26983495,
  "longitude": 5.395911664099216
},
{
  "team": "Olympique De Lyon",
  "stadium": "Parc Olympique Lyonnais",
  "city": "Lyon",
  "address": "10 Avenue Simone Veil, Décines-Charpieu",
  "fundation": 2016,
  "dimensions": "105m x 68m",
  "capacity": 59186,
  "latitude": 45.765224,
  "longitude": 4.982131
},
{
  "team": "Mónaco",
  "stadium": "Stade Louis II",
  "city": "Monaco",
  "address": "7 Avenue Des Castelans, Monaco",
  "fundation": 1985,
  "dimensions": "105m x 68m",
  "capacity": 18525,
  "latitude": 43.727571299999994,
  "longitude": 7.415457695296748
},
{
  "team": "Nantes",
  "stadium": "La Beaujoire",
  "city": "Nantes",
  "address": "Route De Saint Joseph, 44300 Nantes",
  "fundation": 1984,
  "dimensions": "105m x 68m",
  "capacity": 38486,
  "latitude": 47.256004950000005,
  "longitude": -1.524755249963072
},
{
  "team": "Girondins De Burdeos",
  "stadium": "Matmut Atlantique",
  "city": "Bordeaux",
  "address": "Cours Jules Ladoumègue, 33300 Bordeaux",
  "fundation": 2015,
  "dimensions": "105m x 68m",
  "capacity": 42115,
  "latitude": 44.89735105,
  "longitude": -0.5616052335109183
},
{
  "team": "Stade De Reims",
  "stadium": "Stade Auguste Delaune",
  "city": "Rennes",
  "address": "33 Chau. Bocquaine, 51100 Reims",
  "fundation": 1934,
  "dimensions": "105m x 68m",
  "capacity": 21684,
  "latitude": 49.24707575,
  "longitude": 4.024786888254141
},
{
  "team": "Lille",
  "stadium": "Stade Pierre-Mauroy",
  "city": "Lille",
  "address": "261 Bd De Tournai, 59650 Villeneuve-d'Ascq",
  "fundation": 2012,
  "dimensions": "105m x 68m",
  "capacity": 50186,
  "latitude": 50.611962, 
  "longitude": 3.130631
},
{
  "team": "RC Lens",
  "stadium": "Stade Bollaert-Delelis",
  "city": "Lens",
  "address": "177 Av. Alfred Maes, 62300 Lens",
  "fundation": 1933,
  "dimensions": "105m x 68m",
  "capacity": 38058,
  "latitude": 50.43281,
  "longitude": 2.814987838461538
},
{
  "team": "Niza",
  "stadium": "Allianz Riviera",
  "city": "Nice",
  "address": "Boulevard Des Jardiniers, Nice",
  "fundation": 2013,
  "dimensions": "105m x 68m",
  "capacity": 35000,
  "latitude": 43.705147749999995,
  "longitude": 7.192603345064198
},
{
  "team": "Angers",
  "stadium": "Stade Raymond-Kopa",
  "city": "Angers",
  "address": "Boulevard Pierre De Coubertin, 49000 Angers",
  "fundation": 1912,
  "dimensions": "105m x 68m",
  "capacity": 16300,
  "latitude": 47.4605516,
  "longitude": -0.5306947870542803
},
{
  "team": "Stade De Reims",
  "stadium": "Stade Auguste-Delaune",
  "city": "Reims",
  "address": "33 Chau. Bocquaine, 51100 Reims",
  "fundation": 1910,
  "dimensions": "105m x 68m",
  "capacity": 21684,
  "latitude": 49.24707575,
  "longitude": 4.024786888254141
},
{
  "team": "Metz",
  "stadium": "Stade Saint-Symphorien",
  "city": "Metz",
  "address": "3 Bd Saint-Symphorien, 57050 Longeville-Lès-Metz", 
  "fundation": 1923,
  "dimensions": "105m x 68m",
  "capacity": 25636,
  "latitude": 49.1097854,
  "longitude": 6.159489477003396
},
{
  "team": "Lorient",
  "stadium": "Stade Du Moustoir",
  "city": "Lorient",
  "address": "Rue Du Tour Des Portes, 56100 Lorient",
  "fundation": 1959,
  "dimensions": "105m x 68m",
  "capacity": 18890,
  "latitude": 47.748868599999994,
  "longitude": -3.369303194596491
},
{
  "team": "Troyes",
  "stadium": "Stade De l'Aube",
  "city": "Troyes",
  "address": "42 Av. Robert Schumann, 10000 Troyes",
  "fundation": 1956,
  "dimensions": "105m x 68m",
  "capacity": 20400,
  "latitude": 48.30751705,
  "longitude": 4.0985168000000005
}]